[
  {
    "id": 1,
    "name": "FlorisGas North Orlando",
    "address": "1234 N Orange Ave, Orlando, FL 32804",
    "lat": 28.6500,
    "lng": -81.3792,
    "phone": "(407) 555-0123",
    "hours": "6:00 AM - 10:00 PM",
    "services": ["Propane Refill", "Propane Exchange", "Equipment Sales"],
    "regularPrice": 2.89,
    "premiumPrice": 3.19,
    "dieselPrice": 3.45,
    "propanePrice": 3.99
  },
  {
    "id": 2,
    "name": "FlorisGas South Orlando",
    "address": "5678 S Orange Ave, Orlando, FL 32806",
    "lat": 28.4200,
    "lng": -81.3792,
    "phone": "(407) 555-0456",
    "hours": "5:00 AM - 11:00 PM",
    "services": ["Propane Refill", "Propane Exchange", "Tank Inspection"],
    "regularPrice": 2.85,
    "premiumPrice": 3.15,
    "dieselPrice": 3.41,
    "propanePrice": 3.95
  },
  {
    "id": 3,
    "name": "FlorisGas East Orlando",
    "address": "9012 E Colonial Dr, Orlando, FL 32817",
    "lat": 28.5383,
    "lng": -81.2500,
    "phone": "(407) 555-0789",
    "hours": "6:00 AM - 9:00 PM",
    "services": ["Propane Refill", "Propane Exchange", "Equipment Sales", "Tank Inspection"],
    "regularPrice": 2.91,
    "premiumPrice": 3.21,
    "dieselPrice": 3.47,
    "propanePrice": 4.01
  },
  {
    "id": 4,
    "name": "FlorisGas West Orlando",
    "address": "3456 W Colonial Dr, Orlando, FL 32808",
    "lat": 28.5383,
    "lng": -81.5000,
    "phone": "(407) 555-0321",
    "hours": "5:30 AM - 10:30 PM",
    "services": ["Propane Refill", "Propane Exchange"],
    "regularPrice": 2.87,
    "premiumPrice": 3.17,
    "dieselPrice": 3.43,
    "propanePrice": 3.97
  },
  {
    "id": 5,
    "name": "FlorisGas Northeast Orlando",
    "address": "7890 University Blvd, Orlando, FL 32817",
    "lat": 28.6200,
    "lng": -81.2800,
    "phone": "(407) 555-0654",
    "hours": "6:00 AM - 10:00 PM",
    "services": ["Propane Refill", "Propane Exchange", "Equipment Sales"],
    "regularPrice": 2.93,
    "premiumPrice": 3.23,
    "dieselPrice": 3.49,
    "propanePrice": 4.03
  },
  {
    "id": 6,
    "name": "FlorisGas Northwest Orlando",
    "address": "2345 Apopka Vineland Rd, Orlando, FL 32818",
    "lat": 28.6200,
    "lng": -81.4800,
    "phone": "(407) 555-0987",
    "hours": "5:00 AM - 11:00 PM",
    "services": ["Propane Refill", "Propane Exchange", "Tank Inspection"],
    "regularPrice": 2.88,
    "premiumPrice": 3.18,
    "dieselPrice": 3.44,
    "propanePrice": 3.98
  },
  {
    "id": 7,
    "name": "FlorisGas Southeast Orlando",
    "address": "6789 Boggy Creek Rd, Orlando, FL 32824",
    "lat": 28.4500,
    "lng": -81.2800,
    "phone": "(407) 555-0147",
    "hours": "6:00 AM - 9:00 PM",
    "services": ["Propane Refill", "Propane Exchange"],
    "regularPrice": 2.84,
    "premiumPrice": 3.14,
    "dieselPrice": 3.40,
    "propanePrice": 3.94
  },
  {
    "id": 8,
    "name": "FlorisGas Southwest Orlando",
    "address": "4567 Sand Lake Rd, Orlando, FL 32819",
    "lat": 28.4500,
    "lng": -81.4800,
    "phone": "(407) 555-0258",
    "hours": "5:00 AM - 10:00 PM",
    "services": ["Propane Refill", "Propane Exchange", "Equipment Sales"],
    "regularPrice": 2.82,
    "premiumPrice": 3.12,
    "dieselPrice": 3.38,
    "propanePrice": 3.92
  },
  {
    "id": 9,
    "name": "FlorisGas Kissimmee",
    "address": "8901 W Irlo Bronson Memorial Hwy, Kissimmee, FL 34747",
    "lat": 28.3000,
    "lng": -81.4500,
    "phone": "(407) 555-0369",
    "hours": "24/7",
    "services": ["Propane Refill", "Propane Exchange", "Tank Inspection"],
    "regularPrice": 2.80,
    "premiumPrice": 3.10,
    "dieselPrice": 3.36,
    "propanePrice": 3.90
  },
  {
    "id": 10,
    "name": "FlorisGas Winter Park",
    "address": "1234 Park Ave, Winter Park, FL 32789",
    "lat": 28.6000,
    "lng": -81.3400,
    "phone": "(407) 555-0741",
    "hours": "6:00 AM - 10:00 PM",
    "services": ["Propane Refill", "Propane Exchange", "Equipment Sales"],
    "regularPrice": 2.86,
    "premiumPrice": 3.16,
    "dieselPrice": 3.42,
    "propanePrice": 3.96
  },
  {
    "id": 11,
    "name": "FlorisGas Downtown Miami",
    "address": "123 Biscayne Blvd, Miami, FL 33132",
    "lat": 25.7617,
    "lng": -80.1918,
    "phone": "(305) 555-0123",
    "hours": "24/7",
    "services": ["Propane Refill", "Propane Exchange", "Equipment Sales"],
    "regularPrice": 2.95,
    "premiumPrice": 3.25,
    "dieselPrice": 3.51,
    "propanePrice": 4.05
  },
  {
    "id": 12,
    "name": "FlorisGas South Beach",
    "address": "456 Ocean Dr, Miami Beach, FL 33139",
    "lat": 25.7814,
    "lng": -80.1300,
    "phone": "(305) 555-0456",
    "hours": "6:00 AM - 11:00 PM",
    "services": ["Propane Refill", "Propane Exchange", "Tank Inspection"],
    "regularPrice": 2.97,
    "premiumPrice": 3.27,
    "dieselPrice": 3.53,
    "propanePrice": 4.07
  },
  {
    "id": 13,
    "name": "FlorisGas Coral Gables",
    "address": "789 Miracle Mile, Coral Gables, FL 33134",
    "lat": 25.7463,
    "lng": -80.2541,
    "phone": "(305) 555-0789",
    "hours": "6:00 AM - 10:00 PM",
    "services": ["Propane Refill", "Propane Exchange", "Equipment Sales"],
    "regularPrice": 2.93,
    "premiumPrice": 3.23,
    "dieselPrice": 3.49,
    "propanePrice": 4.03
  },
  {
    "id": 14,
    "name": "FlorisGas Aventura",
    "address": "321 Biscayne Blvd, Aventura, FL 33180",
    "lat": 25.9565,
    "lng": -80.1389,
    "phone": "(305) 555-0321",
    "hours": "5:00 AM - 11:00 PM",
    "services": ["Propane Refill", "Propane Exchange", "Tank Inspection"],
    "regularPrice": 2.91,
    "premiumPrice": 3.21,
    "dieselPrice": 3.47,
    "propanePrice": 4.01
  },
  {
    "id": 15,
    "name": "FlorisGas Homestead",
    "address": "654 Krome Ave, Homestead, FL 33030",
    "lat": 25.4687,
    "lng": -80.4776,
    "phone": "(305) 555-0654",
    "hours": "6:00 AM - 9:00 PM",
    "services": ["Propane Refill", "Propane Exchange"],
    "regularPrice": 2.89,
    "premiumPrice": 3.19,
    "dieselPrice": 3.45,
    "propanePrice": 3.99
  },
  {
    "id": 16,
    "name": "FlorisGas Kendall",
    "address": "987 SW 88th St, Miami, FL 33176",
    "lat": 25.6906,
    "lng": -80.3164,
    "phone": "(305) 555-0987",
    "hours": "5:30 AM - 10:30 PM",
    "services": ["Propane Refill", "Propane Exchange", "Equipment Sales"],
    "regularPrice": 2.94,
    "premiumPrice": 3.24,
    "dieselPrice": 3.50,
    "propanePrice": 4.04
  },
  {
    "id": 17,
    "name": "FlorisGas Fort Lauderdale",
    "address": "147 Las Olas Blvd, Fort Lauderdale, FL 33301",
    "lat": 26.1224,
    "lng": -80.1373,
    "phone": "(954) 555-0147",
    "hours": "6:00 AM - 10:00 PM",
    "services": ["Propane Refill", "Propane Exchange", "Tank Inspection"],
    "regularPrice": 2.92,
    "premiumPrice": 3.22,
    "dieselPrice": 3.48,
    "propanePrice": 4.02
  },
  {
    "id": 18,
    "name": "FlorisGas Hialeah",
    "address": "258 W 49th St, Hialeah, FL 33012",
    "lat": 25.8576,
    "lng": -80.2781,
    "phone": "(305) 555-0258",
    "hours": "5:00 AM - 11:00 PM",
    "services": ["Propane Refill", "Propane Exchange"],
    "regularPrice": 2.90,
    "premiumPrice": 3.20,
    "dieselPrice": 3.46,
    "propanePrice": 4.00
  }
]